[
  {
    "shift_id": "S0001",
    "volunteer_id": "V0310",
    "title": "Food Packing",
    "hours": "3.4",
    "date": "2025-07-05"
  },
  {
    "shift_id": "S0002",
    "volunteer_id": "V0140",
    "title": "Health Check",
    "hours": "4.8",
    "date": "2025-06-26"
  },
  {
    "shift_id": "S0003",
    "volunteer_id": "V0210",
    "title": "Teaching",
    "hours": "2.2",
    "date": "2025-04-23"
  },
  {
    "shift_id": "S0004",
    "volunteer_id": "V0329",
    "title": "Health Check",
    "hours": "4.0",
    "date": "2025-07-02"
  },
  {
    "shift_id": "S0005",
    "volunteer_id": "V0071",
    "title": "Teaching",
    "hours": "3.0",
    "date": "2025-03-08"
  },
  {
    "shift_id": "S0006",
    "volunteer_id": "V0271",
    "title": "Teaching",
    "hours": "2.5",
    "date": "2025-06-24"
  },
  {
    "shift_id": "S0007",
    "volunteer_id": "V0054",
    "title": "Food Packing",
    "hours": "4.0",
    "date": "2025-02-16"
  },
  {
    "shift_id": "S0008",
    "volunteer_id": "V0485",
    "title": "Cleaning",
    "hours": "2.7",
    "date": "2025-04-22"
  },
  {
    "shift_id": "S0009",
    "volunteer_id": "V0273",
    "title": "Cleaning",
    "hours": "1.4",
    "date": "2025-06-17"
  },
  {
    "shift_id": "S0010",
    "volunteer_id": "V0341",
    "title": "Cleaning",
    "hours": "4.1",
    "date": "2025-03-08"
  },
  {
    "shift_id": "S0011",
    "volunteer_id": "V0417",
    "title": "Health Check",
    "hours": "3.8",
    "date": "2025-06-22"
  },
  {
    "shift_id": "S0012",
    "volunteer_id": "V0191",
    "title": "Food Packing",
    "hours": "4.6",
    "date": "2025-03-26"
  },
  {
    "shift_id": "S0013",
    "volunteer_id": "V0148",
    "title": "Cleaning",
    "hours": "2.8",
    "date": "2025-02-05"
  },
  {
    "shift_id": "S0014",
    "volunteer_id": "V0497",
    "title": "Food Packing",
    "hours": "4.5",
    "date": "2025-05-20"
  },
  {
    "shift_id": "S0015",
    "volunteer_id": "V0449",
    "title": "Food Packing",
    "hours": "2.4",
    "date": "2025-04-17"
  },
  {
    "shift_id": "S0016",
    "volunteer_id": "V0429",
    "title": "Food Packing",
    "hours": "2.4",
    "date": "2025-02-21"
  },
  {
    "shift_id": "S0017",
    "volunteer_id": "V0183",
    "title": "Cleaning",
    "hours": "1.1",
    "date": "2025-05-22"
  },
  {
    "shift_id": "S0018",
    "volunteer_id": "V0058",
    "title": "Health Check",
    "hours": "3.3",
    "date": "2025-05-18"
  },
  {
    "shift_id": "S0019",
    "volunteer_id": "V0198",
    "title": "Story Reading",
    "hours": "3.1",
    "date": "2025-05-27"
  },
  {
    "shift_id": "S0020",
    "volunteer_id": "V0011",
    "title": "Cleaning",
    "hours": "2.2",
    "date": "2025-04-29"
  },
  {
    "shift_id": "S0021",
    "volunteer_id": "V0105",
    "title": "Story Reading",
    "hours": "1.2",
    "date": "2025-01-29"
  },
  {
    "shift_id": "S0022",
    "volunteer_id": "V0111",
    "title": "Story Reading",
    "hours": "3.8",
    "date": "2025-01-26"
  },
  {
    "shift_id": "S0023",
    "volunteer_id": "V0289",
    "title": "Story Reading",
    "hours": "4.7",
    "date": "2025-05-04"
  },
  {
    "shift_id": "S0024",
    "volunteer_id": "V0262",
    "title": "Food Packing",
    "hours": "4.0",
    "date": "2025-01-15"
  },
  {
    "shift_id": "S0025",
    "volunteer_id": "V0210",
    "title": "Teaching",
    "hours": "4.8",
    "date": "2025-04-16"
  },
  {
    "shift_id": "S0026",
    "volunteer_id": "V0260",
    "title": "Story Reading",
    "hours": "2.8",
    "date": "2025-01-29"
  },
  {
    "shift_id": "S0027",
    "volunteer_id": "V0417",
    "title": "Health Check",
    "hours": "3.4",
    "date": "2025-03-25"
  },
  {
    "shift_id": "S0028",
    "volunteer_id": "V0362",
    "title": "Story Reading",
    "hours": "3.3",
    "date": "2025-04-07"
  },
  {
    "shift_id": "S0029",
    "volunteer_id": "V0109",
    "title": "Food Packing",
    "hours": "4.4",
    "date": "2025-04-01"
  },
  {
    "shift_id": "S0030",
    "volunteer_id": "V0278",
    "title": "Food Packing",
    "hours": "2.2",
    "date": "2025-03-31"
  },
  {
    "shift_id": "S0031",
    "volunteer_id": "V0051",
    "title": "Health Check",
    "hours": "4.3",
    "date": "2025-03-08"
  },
  {
    "shift_id": "S0032",
    "volunteer_id": "V0101",
    "title": "Teaching",
    "hours": "2.7",
    "date": "2025-02-15"
  },
  {
    "shift_id": "S0033",
    "volunteer_id": "V0185",
    "title": "Story Reading",
    "hours": "2.0",
    "date": "2025-02-21"
  },
  {
    "shift_id": "S0034",
    "volunteer_id": "V0114",
    "title": "Cleaning",
    "hours": "1.1",
    "date": "2025-06-02"
  },
  {
    "shift_id": "S0035",
    "volunteer_id": "V0047",
    "title": "Teaching",
    "hours": "3.1",
    "date": "2025-06-04"
  },
  {
    "shift_id": "S0036",
    "volunteer_id": "V0311",
    "title": "Teaching",
    "hours": "2.2",
    "date": "2025-05-25"
  },
  {
    "shift_id": "S0037",
    "volunteer_id": "V0241",
    "title": "Cleaning",
    "hours": "2.0",
    "date": "2025-02-21"
  },
  {
    "shift_id": "S0038",
    "volunteer_id": "V0111",
    "title": "Health Check",
    "hours": "4.2",
    "date": "2025-01-16"
  },
  {
    "shift_id": "S0039",
    "volunteer_id": "V0234",
    "title": "Health Check",
    "hours": "3.5",
    "date": "2025-02-13"
  },
  {
    "shift_id": "S0040",
    "volunteer_id": "V0424",
    "title": "Story Reading",
    "hours": "2.7",
    "date": "2025-03-02"
  },
  {
    "shift_id": "S0041",
    "volunteer_id": "V0472",
    "title": "Health Check",
    "hours": "4.7",
    "date": "2025-05-31"
  },
  {
    "shift_id": "S0042",
    "volunteer_id": "V0115",
    "title": "Story Reading",
    "hours": "4.5",
    "date": "2025-04-17"
  },
  {
    "shift_id": "S0043",
    "volunteer_id": "V0285",
    "title": "Cleaning",
    "hours": "2.1",
    "date": "2025-05-12"
  },
  {
    "shift_id": "S0044",
    "volunteer_id": "V0235",
    "title": "Health Check",
    "hours": "4.0",
    "date": "2025-01-29"
  },
  {
    "shift_id": "S0045",
    "volunteer_id": "V0358",
    "title": "Cleaning",
    "hours": "1.9",
    "date": "2025-03-22"
  },
  {
    "shift_id": "S0046",
    "volunteer_id": "V0334",
    "title": "Health Check",
    "hours": "2.6",
    "date": "2025-06-05"
  },
  {
    "shift_id": "S0047",
    "volunteer_id": "V0083",
    "title": "Cleaning",
    "hours": "1.6",
    "date": "2025-06-29"
  },
  {
    "shift_id": "S0048",
    "volunteer_id": "V0028",
    "title": "Food Packing",
    "hours": "2.0",
    "date": "2025-05-25"
  },
  {
    "shift_id": "S0049",
    "volunteer_id": "V0343",
    "title": "Teaching",
    "hours": "1.0",
    "date": "2025-04-26"
  },
  {
    "shift_id": "S0050",
    "volunteer_id": "V0379",
    "title": "Teaching",
    "hours": "1.6",
    "date": "2025-04-23"
  },
  {
    "shift_id": "S0051",
    "volunteer_id": "V0488",
    "title": "Food Packing",
    "hours": "2.7",
    "date": "2025-06-25"
  },
  {
    "shift_id": "S0052",
    "volunteer_id": "V0458",
    "title": "Food Packing",
    "hours": "4.4",
    "date": "2025-05-25"
  },
  {
    "shift_id": "S0053",
    "volunteer_id": "V0439",
    "title": "Cleaning",
    "hours": "4.2",
    "date": "2025-05-14"
  },
  {
    "shift_id": "S0054",
    "volunteer_id": "V0303",
    "title": "Food Packing",
    "hours": "4.7",
    "date": "2025-01-27"
  },
  {
    "shift_id": "S0055",
    "volunteer_id": "V0468",
    "title": "Food Packing",
    "hours": "4.4",
    "date": "2025-05-02"
  },
  {
    "shift_id": "S0056",
    "volunteer_id": "V0273",
    "title": "Cleaning",
    "hours": "4.1",
    "date": "2025-03-27"
  },
  {
    "shift_id": "S0057",
    "volunteer_id": "V0355",
    "title": "Story Reading",
    "hours": "3.3",
    "date": "2025-04-16"
  },
  {
    "shift_id": "S0058",
    "volunteer_id": "V0438",
    "title": "Food Packing",
    "hours": "4.8",
    "date": "2025-03-05"
  },
  {
    "shift_id": "S0059",
    "volunteer_id": "V0342",
    "title": "Cleaning",
    "hours": "4.6",
    "date": "2025-05-17"
  },
  {
    "shift_id": "S0060",
    "volunteer_id": "V0290",
    "title": "Food Packing",
    "hours": "1.0",
    "date": "2025-05-12"
  },
  {
    "shift_id": "S0061",
    "volunteer_id": "V0322",
    "title": "Teaching",
    "hours": "3.4",
    "date": "2025-01-25"
  },
  {
    "shift_id": "S0062",
    "volunteer_id": "V0422",
    "title": "Teaching",
    "hours": "4.0",
    "date": "2025-06-15"
  },
  {
    "shift_id": "S0063",
    "volunteer_id": "V0323",
    "title": "Story Reading",
    "hours": "4.3",
    "date": "2025-03-05"
  },
  {
    "shift_id": "S0064",
    "volunteer_id": "V0284",
    "title": "Cleaning",
    "hours": "2.1",
    "date": "2025-01-21"
  },
  {
    "shift_id": "S0065",
    "volunteer_id": "V0327",
    "title": "Story Reading",
    "hours": "3.2",
    "date": "2025-05-08"
  },
  {
    "shift_id": "S0066",
    "volunteer_id": "V0430",
    "title": "Story Reading",
    "hours": "1.9",
    "date": "2025-06-21"
  },
  {
    "shift_id": "S0067",
    "volunteer_id": "V0496",
    "title": "Cleaning",
    "hours": "3.6",
    "date": "2025-03-11"
  },
  {
    "shift_id": "S0068",
    "volunteer_id": "V0227",
    "title": "Story Reading",
    "hours": "1.8",
    "date": "2025-05-19"
  },
  {
    "shift_id": "S0069",
    "volunteer_id": "V0134",
    "title": "Health Check",
    "hours": "1.1",
    "date": "2025-05-26"
  },
  {
    "shift_id": "S0070",
    "volunteer_id": "V0373",
    "title": "Story Reading",
    "hours": "3.9",
    "date": "2025-06-25"
  },
  {
    "shift_id": "S0071",
    "volunteer_id": "V0098",
    "title": "Cleaning",
    "hours": "4.9",
    "date": "2025-03-15"
  },
  {
    "shift_id": "S0072",
    "volunteer_id": "V0028",
    "title": "Teaching",
    "hours": "3.3",
    "date": "2025-02-10"
  },
  {
    "shift_id": "S0073",
    "volunteer_id": "V0097",
    "title": "Cleaning",
    "hours": "1.8",
    "date": "2025-04-29"
  },
  {
    "shift_id": "S0074",
    "volunteer_id": "V0145",
    "title": "Story Reading",
    "hours": "1.7",
    "date": "2025-06-27"
  },
  {
    "shift_id": "S0075",
    "volunteer_id": "V0329",
    "title": "Food Packing",
    "hours": "2.6",
    "date": "2025-04-25"
  },
  {
    "shift_id": "S0076",
    "volunteer_id": "V0160",
    "title": "Health Check",
    "hours": "3.3",
    "date": "2025-05-05"
  },
  {
    "shift_id": "S0077",
    "volunteer_id": "V0447",
    "title": "Health Check",
    "hours": "1.5",
    "date": "2025-03-16"
  },
  {
    "shift_id": "S0078",
    "volunteer_id": "V0130",
    "title": "Health Check",
    "hours": "1.4",
    "date": "2025-06-16"
  },
  {
    "shift_id": "S0079",
    "volunteer_id": "V0095",
    "title": "Teaching",
    "hours": "4.2",
    "date": "2025-05-17"
  },
  {
    "shift_id": "S0080",
    "volunteer_id": "V0160",
    "title": "Food Packing",
    "hours": "2.0",
    "date": "2025-05-26"
  },
  {
    "shift_id": "S0081",
    "volunteer_id": "V0109",
    "title": "Story Reading",
    "hours": "3.4",
    "date": "2025-02-06"
  },
  {
    "shift_id": "S0082",
    "volunteer_id": "V0408",
    "title": "Health Check",
    "hours": "4.2",
    "date": "2025-06-29"
  },
  {
    "shift_id": "S0083",
    "volunteer_id": "V0133",
    "title": "Cleaning",
    "hours": "1.3",
    "date": "2025-03-06"
  },
  {
    "shift_id": "S0084",
    "volunteer_id": "V0492",
    "title": "Teaching",
    "hours": "2.6",
    "date": "2025-05-23"
  },
  {
    "shift_id": "S0085",
    "volunteer_id": "V0486",
    "title": "Health Check",
    "hours": "3.8",
    "date": "2025-06-13"
  },
  {
    "shift_id": "S0086",
    "volunteer_id": "V0017",
    "title": "Health Check",
    "hours": "1.6",
    "date": "2025-03-08"
  },
  {
    "shift_id": "S0087",
    "volunteer_id": "V0061",
    "title": "Health Check",
    "hours": "1.8",
    "date": "2025-05-06"
  },
  {
    "shift_id": "S0088",
    "volunteer_id": "V0317",
    "title": "Teaching",
    "hours": "4.4",
    "date": "2025-06-25"
  },
  {
    "shift_id": "S0089",
    "volunteer_id": "V0034",
    "title": "Food Packing",
    "hours": "4.5",
    "date": "2025-02-14"
  },
  {
    "shift_id": "S0090",
    "volunteer_id": "V0110",
    "title": "Teaching",
    "hours": "4.3",
    "date": "2025-02-20"
  },
  {
    "shift_id": "S0091",
    "volunteer_id": "V0292",
    "title": "Teaching",
    "hours": "2.3",
    "date": "2025-04-27"
  },
  {
    "shift_id": "S0092",
    "volunteer_id": "V0336",
    "title": "Teaching",
    "hours": "2.4",
    "date": "2025-01-10"
  },
  {
    "shift_id": "S0093",
    "volunteer_id": "V0323",
    "title": "Story Reading",
    "hours": "4.5",
    "date": "2025-01-17"
  },
  {
    "shift_id": "S0094",
    "volunteer_id": "V0080",
    "title": "Cleaning",
    "hours": "4.5",
    "date": "2025-02-21"
  },
  {
    "shift_id": "S0095",
    "volunteer_id": "V0452",
    "title": "Health Check",
    "hours": "3.3",
    "date": "2025-05-23"
  },
  {
    "shift_id": "S0096",
    "volunteer_id": "V0037",
    "title": "Teaching",
    "hours": "3.7",
    "date": "2025-04-25"
  },
  {
    "shift_id": "S0097",
    "volunteer_id": "V0419",
    "title": "Health Check",
    "hours": "3.9",
    "date": "2025-03-10"
  },
  {
    "shift_id": "S0098",
    "volunteer_id": "V0483",
    "title": "Story Reading",
    "hours": "3.7",
    "date": "2025-01-20"
  },
  {
    "shift_id": "S0099",
    "volunteer_id": "V0076",
    "title": "Story Reading",
    "hours": "1.6",
    "date": "2025-05-09"
  },
  {
    "shift_id": "S0100",
    "volunteer_id": "V0223",
    "title": "Food Packing",
    "hours": "4.8",
    "date": "2025-05-09"
  },
  {
    "shift_id": "S0101",
    "volunteer_id": "V0145",
    "title": "Food Packing",
    "hours": "2.5",
    "date": "2025-02-02"
  },
  {
    "shift_id": "S0102",
    "volunteer_id": "V0043",
    "title": "Teaching",
    "hours": "1.5",
    "date": "2025-06-16"
  },
  {
    "shift_id": "S0103",
    "volunteer_id": "V0135",
    "title": "Food Packing",
    "hours": "3.9",
    "date": "2025-06-08"
  },
  {
    "shift_id": "S0104",
    "volunteer_id": "V0193",
    "title": "Health Check",
    "hours": "1.2",
    "date": "2025-06-27"
  },
  {
    "shift_id": "S0105",
    "volunteer_id": "V0338",
    "title": "Health Check",
    "hours": "2.5",
    "date": "2025-06-10"
  },
  {
    "shift_id": "S0106",
    "volunteer_id": "V0271",
    "title": "Story Reading",
    "hours": "4.1",
    "date": "2025-02-26"
  },
  {
    "shift_id": "S0107",
    "volunteer_id": "V0370",
    "title": "Food Packing",
    "hours": "3.3",
    "date": "2025-06-20"
  },
  {
    "shift_id": "S0108",
    "volunteer_id": "V0079",
    "title": "Food Packing",
    "hours": "3.0",
    "date": "2025-01-08"
  },
  {
    "shift_id": "S0109",
    "volunteer_id": "V0048",
    "title": "Health Check",
    "hours": "5.0",
    "date": "2025-03-10"
  },
  {
    "shift_id": "S0110",
    "volunteer_id": "V0488",
    "title": "Health Check",
    "hours": "3.2",
    "date": "2025-03-17"
  },
  {
    "shift_id": "S0111",
    "volunteer_id": "V0002",
    "title": "Story Reading",
    "hours": "4.0",
    "date": "2025-02-16"
  },
  {
    "shift_id": "S0112",
    "volunteer_id": "V0476",
    "title": "Health Check",
    "hours": "3.1",
    "date": "2025-04-18"
  },
  {
    "shift_id": "S0113",
    "volunteer_id": "V0321",
    "title": "Teaching",
    "hours": "4.6",
    "date": "2025-06-04"
  },
  {
    "shift_id": "S0114",
    "volunteer_id": "V0467",
    "title": "Health Check",
    "hours": "4.1",
    "date": "2025-02-01"
  },
  {
    "shift_id": "S0115",
    "volunteer_id": "V0048",
    "title": "Teaching",
    "hours": "4.0",
    "date": "2025-05-26"
  },
  {
    "shift_id": "S0116",
    "volunteer_id": "V0134",
    "title": "Story Reading",
    "hours": "3.8",
    "date": "2025-05-20"
  },
  {
    "shift_id": "S0117",
    "volunteer_id": "V0388",
    "title": "Health Check",
    "hours": "1.5",
    "date": "2025-02-01"
  },
  {
    "shift_id": "S0118",
    "volunteer_id": "V0374",
    "title": "Story Reading",
    "hours": "4.2",
    "date": "2025-04-02"
  },
  {
    "shift_id": "S0119",
    "volunteer_id": "V0208",
    "title": "Cleaning",
    "hours": "4.5",
    "date": "2025-06-18"
  },
  {
    "shift_id": "S0120",
    "volunteer_id": "V0376",
    "title": "Story Reading",
    "hours": "2.7",
    "date": "2025-06-05"
  },
  {
    "shift_id": "S0121",
    "volunteer_id": "V0192",
    "title": "Cleaning",
    "hours": "3.7",
    "date": "2025-06-07"
  },
  {
    "shift_id": "S0122",
    "volunteer_id": "V0039",
    "title": "Cleaning",
    "hours": "4.2",
    "date": "2025-05-16"
  },
  {
    "shift_id": "S0123",
    "volunteer_id": "V0189",
    "title": "Cleaning",
    "hours": "1.6",
    "date": "2025-04-22"
  },
  {
    "shift_id": "S0124",
    "volunteer_id": "V0404",
    "title": "Story Reading",
    "hours": "3.5",
    "date": "2025-02-07"
  },
  {
    "shift_id": "S0125",
    "volunteer_id": "V0343",
    "title": "Food Packing",
    "hours": "3.4",
    "date": "2025-04-15"
  },
  {
    "shift_id": "S0126",
    "volunteer_id": "V0462",
    "title": "Health Check",
    "hours": "1.3",
    "date": "2025-04-03"
  },
  {
    "shift_id": "S0127",
    "volunteer_id": "V0301",
    "title": "Cleaning",
    "hours": "2.7",
    "date": "2025-02-10"
  },
  {
    "shift_id": "S0128",
    "volunteer_id": "V0110",
    "title": "Food Packing",
    "hours": "1.6",
    "date": "2025-02-25"
  },
  {
    "shift_id": "S0129",
    "volunteer_id": "V0043",
    "title": "Health Check",
    "hours": "2.1",
    "date": "2025-06-09"
  },
  {
    "shift_id": "S0130",
    "volunteer_id": "V0240",
    "title": "Story Reading",
    "hours": "4.1",
    "date": "2025-01-30"
  },
  {
    "shift_id": "S0131",
    "volunteer_id": "V0390",
    "title": "Teaching",
    "hours": "3.9",
    "date": "2025-05-06"
  },
  {
    "shift_id": "S0132",
    "volunteer_id": "V0431",
    "title": "Cleaning",
    "hours": "2.7",
    "date": "2025-05-22"
  },
  {
    "shift_id": "S0133",
    "volunteer_id": "V0186",
    "title": "Food Packing",
    "hours": "1.1",
    "date": "2025-07-05"
  },
  {
    "shift_id": "S0134",
    "volunteer_id": "V0282",
    "title": "Teaching",
    "hours": "1.5",
    "date": "2025-03-05"
  },
  {
    "shift_id": "S0135",
    "volunteer_id": "V0467",
    "title": "Health Check",
    "hours": "3.9",
    "date": "2025-03-16"
  },
  {
    "shift_id": "S0136",
    "volunteer_id": "V0117",
    "title": "Cleaning",
    "hours": "4.0",
    "date": "2025-01-12"
  },
  {
    "shift_id": "S0137",
    "volunteer_id": "V0283",
    "title": "Food Packing",
    "hours": "2.7",
    "date": "2025-01-23"
  },
  {
    "shift_id": "S0138",
    "volunteer_id": "V0218",
    "title": "Health Check",
    "hours": "4.2",
    "date": "2025-03-02"
  },
  {
    "shift_id": "S0139",
    "volunteer_id": "V0016",
    "title": "Cleaning",
    "hours": "1.9",
    "date": "2025-01-14"
  },
  {
    "shift_id": "S0140",
    "volunteer_id": "V0453",
    "title": "Health Check",
    "hours": "2.0",
    "date": "2025-06-20"
  },
  {
    "shift_id": "S0141",
    "volunteer_id": "V0193",
    "title": "Cleaning",
    "hours": "2.6",
    "date": "2025-02-02"
  },
  {
    "shift_id": "S0142",
    "volunteer_id": "V0472",
    "title": "Cleaning",
    "hours": "2.3",
    "date": "2025-03-08"
  },
  {
    "shift_id": "S0143",
    "volunteer_id": "V0439",
    "title": "Cleaning",
    "hours": "1.6",
    "date": "2025-07-04"
  },
  {
    "shift_id": "S0144",
    "volunteer_id": "V0008",
    "title": "Food Packing",
    "hours": "2.3",
    "date": "2025-02-20"
  },
  {
    "shift_id": "S0145",
    "volunteer_id": "V0184",
    "title": "Teaching",
    "hours": "3.7",
    "date": "2025-06-18"
  },
  {
    "shift_id": "S0146",
    "volunteer_id": "V0024",
    "title": "Health Check",
    "hours": "1.3",
    "date": "2025-02-12"
  },
  {
    "shift_id": "S0147",
    "volunteer_id": "V0243",
    "title": "Health Check",
    "hours": "4.2",
    "date": "2025-04-16"
  },
  {
    "shift_id": "S0148",
    "volunteer_id": "V0355",
    "title": "Story Reading",
    "hours": "4.0",
    "date": "2025-01-19"
  },
  {
    "shift_id": "S0149",
    "volunteer_id": "V0338",
    "title": "Story Reading",
    "hours": "1.8",
    "date": "2025-06-18"
  },
  {
    "shift_id": "S0150",
    "volunteer_id": "V0350",
    "title": "Teaching",
    "hours": "2.2",
    "date": "2025-04-28"
  },
  {
    "shift_id": "S0151",
    "volunteer_id": "V0286",
    "title": "Teaching",
    "hours": "4.2",
    "date": "2025-03-12"
  },
  {
    "shift_id": "S0152",
    "volunteer_id": "V0371",
    "title": "Story Reading",
    "hours": "4.2",
    "date": "2025-05-22"
  },
  {
    "shift_id": "S0153",
    "volunteer_id": "V0131",
    "title": "Health Check",
    "hours": "4.6",
    "date": "2025-07-04"
  },
  {
    "shift_id": "S0154",
    "volunteer_id": "V0337",
    "title": "Health Check",
    "hours": "2.5",
    "date": "2025-06-03"
  },
  {
    "shift_id": "S0155",
    "volunteer_id": "V0400",
    "title": "Teaching",
    "hours": "4.7",
    "date": "2025-02-23"
  },
  {
    "shift_id": "S0156",
    "volunteer_id": "V0337",
    "title": "Story Reading",
    "hours": "1.5",
    "date": "2025-03-08"
  },
  {
    "shift_id": "S0157",
    "volunteer_id": "V0306",
    "title": "Cleaning",
    "hours": "2.8",
    "date": "2025-01-26"
  },
  {
    "shift_id": "S0158",
    "volunteer_id": "V0207",
    "title": "Teaching",
    "hours": "1.6",
    "date": "2025-02-28"
  },
  {
    "shift_id": "S0159",
    "volunteer_id": "V0096",
    "title": "Story Reading",
    "hours": "5.0",
    "date": "2025-03-22"
  },
  {
    "shift_id": "S0160",
    "volunteer_id": "V0332",
    "title": "Teaching",
    "hours": "3.3",
    "date": "2025-02-22"
  },
  {
    "shift_id": "S0161",
    "volunteer_id": "V0437",
    "title": "Story Reading",
    "hours": "1.2",
    "date": "2025-05-19"
  },
  {
    "shift_id": "S0162",
    "volunteer_id": "V0268",
    "title": "Health Check",
    "hours": "3.4",
    "date": "2025-01-18"
  },
  {
    "shift_id": "S0163",
    "volunteer_id": "V0093",
    "title": "Story Reading",
    "hours": "4.6",
    "date": "2025-04-10"
  },
  {
    "shift_id": "S0164",
    "volunteer_id": "V0477",
    "title": "Story Reading",
    "hours": "1.1",
    "date": "2025-07-03"
  },
  {
    "shift_id": "S0165",
    "volunteer_id": "V0357",
    "title": "Cleaning",
    "hours": "3.7",
    "date": "2025-05-15"
  },
  {
    "shift_id": "S0166",
    "volunteer_id": "V0022",
    "title": "Teaching",
    "hours": "2.9",
    "date": "2025-01-16"
  },
  {
    "shift_id": "S0167",
    "volunteer_id": "V0093",
    "title": "Story Reading",
    "hours": "4.7",
    "date": "2025-04-29"
  },
  {
    "shift_id": "S0168",
    "volunteer_id": "V0331",
    "title": "Health Check",
    "hours": "4.3",
    "date": "2025-04-23"
  },
  {
    "shift_id": "S0169",
    "volunteer_id": "V0108",
    "title": "Health Check",
    "hours": "2.9",
    "date": "2025-04-20"
  },
  {
    "shift_id": "S0170",
    "volunteer_id": "V0403",
    "title": "Story Reading",
    "hours": "3.0",
    "date": "2025-04-28"
  },
  {
    "shift_id": "S0171",
    "volunteer_id": "V0080",
    "title": "Health Check",
    "hours": "2.6",
    "date": "2025-03-10"
  },
  {
    "shift_id": "S0172",
    "volunteer_id": "V0190",
    "title": "Cleaning",
    "hours": "3.8",
    "date": "2025-02-15"
  },
  {
    "shift_id": "S0173",
    "volunteer_id": "V0009",
    "title": "Cleaning",
    "hours": "3.8",
    "date": "2025-04-30"
  },
  {
    "shift_id": "S0174",
    "volunteer_id": "V0019",
    "title": "Health Check",
    "hours": "3.8",
    "date": "2025-03-03"
  },
  {
    "shift_id": "S0175",
    "volunteer_id": "V0013",
    "title": "Health Check",
    "hours": "1.6",
    "date": "2025-03-24"
  },
  {
    "shift_id": "S0176",
    "volunteer_id": "V0353",
    "title": "Food Packing",
    "hours": "2.9",
    "date": "2025-03-21"
  },
  {
    "shift_id": "S0177",
    "volunteer_id": "V0467",
    "title": "Food Packing",
    "hours": "2.9",
    "date": "2025-05-21"
  },
  {
    "shift_id": "S0178",
    "volunteer_id": "V0296",
    "title": "Food Packing",
    "hours": "2.0",
    "date": "2025-02-16"
  },
  {
    "shift_id": "S0179",
    "volunteer_id": "V0290",
    "title": "Cleaning",
    "hours": "4.8",
    "date": "2025-04-19"
  },
  {
    "shift_id": "S0180",
    "volunteer_id": "V0381",
    "title": "Cleaning",
    "hours": "2.9",
    "date": "2025-01-23"
  },
  {
    "shift_id": "S0181",
    "volunteer_id": "V0492",
    "title": "Teaching",
    "hours": "2.5",
    "date": "2025-03-08"
  },
  {
    "shift_id": "S0182",
    "volunteer_id": "V0411",
    "title": "Teaching",
    "hours": "5.0",
    "date": "2025-01-17"
  },
  {
    "shift_id": "S0183",
    "volunteer_id": "V0243",
    "title": "Food Packing",
    "hours": "3.5",
    "date": "2025-05-10"
  },
  {
    "shift_id": "S0184",
    "volunteer_id": "V0205",
    "title": "Food Packing",
    "hours": "3.3",
    "date": "2025-05-27"
  },
  {
    "shift_id": "S0185",
    "volunteer_id": "V0297",
    "title": "Food Packing",
    "hours": "2.0",
    "date": "2025-03-28"
  },
  {
    "shift_id": "S0186",
    "volunteer_id": "V0437",
    "title": "Story Reading",
    "hours": "1.9",
    "date": "2025-04-03"
  },
  {
    "shift_id": "S0187",
    "volunteer_id": "V0033",
    "title": "Teaching",
    "hours": "1.4",
    "date": "2025-04-29"
  },
  {
    "shift_id": "S0188",
    "volunteer_id": "V0227",
    "title": "Story Reading",
    "hours": "2.5",
    "date": "2025-04-22"
  },
  {
    "shift_id": "S0189",
    "volunteer_id": "V0317",
    "title": "Health Check",
    "hours": "3.9",
    "date": "2025-02-22"
  },
  {
    "shift_id": "S0190",
    "volunteer_id": "V0121",
    "title": "Teaching",
    "hours": "2.0",
    "date": "2025-01-21"
  },
  {
    "shift_id": "S0191",
    "volunteer_id": "V0292",
    "title": "Cleaning",
    "hours": "2.3",
    "date": "2025-03-12"
  },
  {
    "shift_id": "S0192",
    "volunteer_id": "V0225",
    "title": "Health Check",
    "hours": "3.1",
    "date": "2025-03-13"
  },
  {
    "shift_id": "S0193",
    "volunteer_id": "V0158",
    "title": "Story Reading",
    "hours": "2.8",
    "date": "2025-02-28"
  },
  {
    "shift_id": "S0194",
    "volunteer_id": "V0318",
    "title": "Cleaning",
    "hours": "2.5",
    "date": "2025-02-25"
  },
  {
    "shift_id": "S0195",
    "volunteer_id": "V0410",
    "title": "Cleaning",
    "hours": "1.5",
    "date": "2025-06-23"
  },
  {
    "shift_id": "S0196",
    "volunteer_id": "V0440",
    "title": "Food Packing",
    "hours": "3.5",
    "date": "2025-01-12"
  },
  {
    "shift_id": "S0197",
    "volunteer_id": "V0325",
    "title": "Cleaning",
    "hours": "4.5",
    "date": "2025-01-12"
  },
  {
    "shift_id": "S0198",
    "volunteer_id": "V0282",
    "title": "Teaching",
    "hours": "4.3",
    "date": "2025-06-18"
  },
  {
    "shift_id": "S0199",
    "volunteer_id": "V0286",
    "title": "Food Packing",
    "hours": "2.4",
    "date": "2025-01-20"
  },
  {
    "shift_id": "S0200",
    "volunteer_id": "V0395",
    "title": "Health Check",
    "hours": "1.6",
    "date": "2025-05-12"
  },
  {
    "shift_id": "S0201",
    "volunteer_id": "V0113",
    "title": "Cleaning",
    "hours": "3.3",
    "date": "2025-04-26"
  },
  {
    "shift_id": "S0202",
    "volunteer_id": "V0228",
    "title": "Food Packing",
    "hours": "3.8",
    "date": "2025-02-05"
  },
  {
    "shift_id": "S0203",
    "volunteer_id": "V0060",
    "title": "Story Reading",
    "hours": "4.9",
    "date": "2025-02-07"
  },
  {
    "shift_id": "S0204",
    "volunteer_id": "V0210",
    "title": "Food Packing",
    "hours": "1.6",
    "date": "2025-05-17"
  },
  {
    "shift_id": "S0205",
    "volunteer_id": "V0240",
    "title": "Teaching",
    "hours": "3.2",
    "date": "2025-06-03"
  },
  {
    "shift_id": "S0206",
    "volunteer_id": "V0403",
    "title": "Story Reading",
    "hours": "2.4",
    "date": "2025-01-21"
  },
  {
    "shift_id": "S0207",
    "volunteer_id": "V0153",
    "title": "Teaching",
    "hours": "3.4",
    "date": "2025-06-24"
  },
  {
    "shift_id": "S0208",
    "volunteer_id": "V0345",
    "title": "Food Packing",
    "hours": "4.6",
    "date": "2025-07-02"
  },
  {
    "shift_id": "S0209",
    "volunteer_id": "V0271",
    "title": "Health Check",
    "hours": "2.5",
    "date": "2025-07-06"
  },
  {
    "shift_id": "S0210",
    "volunteer_id": "V0001",
    "title": "Food Packing",
    "hours": "3.4",
    "date": "2025-04-06"
  },
  {
    "shift_id": "S0211",
    "volunteer_id": "V0065",
    "title": "Food Packing",
    "hours": "1.2",
    "date": "2025-03-03"
  },
  {
    "shift_id": "S0212",
    "volunteer_id": "V0314",
    "title": "Story Reading",
    "hours": "4.5",
    "date": "2025-06-29"
  },
  {
    "shift_id": "S0213",
    "volunteer_id": "V0309",
    "title": "Cleaning",
    "hours": "2.2",
    "date": "2025-05-10"
  },
  {
    "shift_id": "S0214",
    "volunteer_id": "V0154",
    "title": "Health Check",
    "hours": "1.8",
    "date": "2025-02-20"
  },
  {
    "shift_id": "S0215",
    "volunteer_id": "V0444",
    "title": "Health Check",
    "hours": "1.6",
    "date": "2025-04-04"
  },
  {
    "shift_id": "S0216",
    "volunteer_id": "V0034",
    "title": "Health Check",
    "hours": "2.7",
    "date": "2025-04-14"
  },
  {
    "shift_id": "S0217",
    "volunteer_id": "V0386",
    "title": "Cleaning",
    "hours": "4.9",
    "date": "2025-02-09"
  },
  {
    "shift_id": "S0218",
    "volunteer_id": "V0111",
    "title": "Teaching",
    "hours": "1.6",
    "date": "2025-02-13"
  },
  {
    "shift_id": "S0219",
    "volunteer_id": "V0335",
    "title": "Food Packing",
    "hours": "2.0",
    "date": "2025-03-20"
  },
  {
    "shift_id": "S0220",
    "volunteer_id": "V0209",
    "title": "Cleaning",
    "hours": "1.1",
    "date": "2025-04-16"
  },
  {
    "shift_id": "S0221",
    "volunteer_id": "V0251",
    "title": "Food Packing",
    "hours": "3.7",
    "date": "2025-06-27"
  },
  {
    "shift_id": "S0222",
    "volunteer_id": "V0013",
    "title": "Cleaning",
    "hours": "3.3",
    "date": "2025-01-30"
  },
  {
    "shift_id": "S0223",
    "volunteer_id": "V0190",
    "title": "Food Packing",
    "hours": "2.5",
    "date": "2025-05-18"
  },
  {
    "shift_id": "S0224",
    "volunteer_id": "V0334",
    "title": "Food Packing",
    "hours": "4.3",
    "date": "2025-01-08"
  },
  {
    "shift_id": "S0225",
    "volunteer_id": "V0417",
    "title": "Story Reading",
    "hours": "1.4",
    "date": "2025-06-03"
  },
  {
    "shift_id": "S0226",
    "volunteer_id": "V0334",
    "title": "Story Reading",
    "hours": "1.7",
    "date": "2025-04-16"
  },
  {
    "shift_id": "S0227",
    "volunteer_id": "V0292",
    "title": "Cleaning",
    "hours": "2.7",
    "date": "2025-05-28"
  },
  {
    "shift_id": "S0228",
    "volunteer_id": "V0220",
    "title": "Teaching",
    "hours": "1.2",
    "date": "2025-07-05"
  },
  {
    "shift_id": "S0229",
    "volunteer_id": "V0459",
    "title": "Cleaning",
    "hours": "1.8",
    "date": "2025-05-13"
  },
  {
    "shift_id": "S0230",
    "volunteer_id": "V0232",
    "title": "Health Check",
    "hours": "4.5",
    "date": "2025-05-27"
  },
  {
    "shift_id": "S0231",
    "volunteer_id": "V0061",
    "title": "Cleaning",
    "hours": "1.2",
    "date": "2025-03-24"
  },
  {
    "shift_id": "S0232",
    "volunteer_id": "V0207",
    "title": "Food Packing",
    "hours": "3.1",
    "date": "2025-05-07"
  },
  {
    "shift_id": "S0233",
    "volunteer_id": "V0014",
    "title": "Story Reading",
    "hours": "1.4",
    "date": "2025-01-26"
  },
  {
    "shift_id": "S0234",
    "volunteer_id": "V0110",
    "title": "Cleaning",
    "hours": "3.6",
    "date": "2025-04-20"
  },
  {
    "shift_id": "S0235",
    "volunteer_id": "V0073",
    "title": "Story Reading",
    "hours": "4.3",
    "date": "2025-03-13"
  },
  {
    "shift_id": "S0236",
    "volunteer_id": "V0383",
    "title": "Story Reading",
    "hours": "2.4",
    "date": "2025-04-04"
  },
  {
    "shift_id": "S0237",
    "volunteer_id": "V0111",
    "title": "Teaching",
    "hours": "2.9",
    "date": "2025-06-18"
  },
  {
    "shift_id": "S0238",
    "volunteer_id": "V0325",
    "title": "Teaching",
    "hours": "2.0",
    "date": "2025-04-08"
  },
  {
    "shift_id": "S0239",
    "volunteer_id": "V0186",
    "title": "Story Reading",
    "hours": "2.2",
    "date": "2025-05-07"
  },
  {
    "shift_id": "S0240",
    "volunteer_id": "V0485",
    "title": "Story Reading",
    "hours": "1.7",
    "date": "2025-01-22"
  },
  {
    "shift_id": "S0241",
    "volunteer_id": "V0055",
    "title": "Health Check",
    "hours": "3.8",
    "date": "2025-07-01"
  },
  {
    "shift_id": "S0242",
    "volunteer_id": "V0385",
    "title": "Health Check",
    "hours": "3.5",
    "date": "2025-02-17"
  },
  {
    "shift_id": "S0243",
    "volunteer_id": "V0068",
    "title": "Cleaning",
    "hours": "4.6",
    "date": "2025-04-12"
  },
  {
    "shift_id": "S0244",
    "volunteer_id": "V0003",
    "title": "Food Packing",
    "hours": "4.3",
    "date": "2025-05-06"
  },
  {
    "shift_id": "S0245",
    "volunteer_id": "V0049",
    "title": "Food Packing",
    "hours": "3.1",
    "date": "2025-05-18"
  },
  {
    "shift_id": "S0246",
    "volunteer_id": "V0236",
    "title": "Story Reading",
    "hours": "4.7",
    "date": "2025-03-10"
  },
  {
    "shift_id": "S0247",
    "volunteer_id": "V0296",
    "title": "Health Check",
    "hours": "4.1",
    "date": "2025-02-16"
  },
  {
    "shift_id": "S0248",
    "volunteer_id": "V0421",
    "title": "Health Check",
    "hours": "3.2",
    "date": "2025-01-12"
  },
  {
    "shift_id": "S0249",
    "volunteer_id": "V0002",
    "title": "Story Reading",
    "hours": "2.7",
    "date": "2025-04-03"
  },
  {
    "shift_id": "S0250",
    "volunteer_id": "V0079",
    "title": "Cleaning",
    "hours": "4.6",
    "date": "2025-06-10"
  },
  {
    "shift_id": "S0251",
    "volunteer_id": "V0293",
    "title": "Food Packing",
    "hours": "1.8",
    "date": "2025-04-06"
  },
  {
    "shift_id": "S0252",
    "volunteer_id": "V0109",
    "title": "Teaching",
    "hours": "4.9",
    "date": "2025-03-20"
  },
  {
    "shift_id": "S0253",
    "volunteer_id": "V0316",
    "title": "Cleaning",
    "hours": "1.7",
    "date": "2025-03-29"
  },
  {
    "shift_id": "S0254",
    "volunteer_id": "V0015",
    "title": "Cleaning",
    "hours": "4.1",
    "date": "2025-05-30"
  },
  {
    "shift_id": "S0255",
    "volunteer_id": "V0421",
    "title": "Cleaning",
    "hours": "4.4",
    "date": "2025-02-17"
  },
  {
    "shift_id": "S0256",
    "volunteer_id": "V0180",
    "title": "Food Packing",
    "hours": "1.3",
    "date": "2025-01-22"
  },
  {
    "shift_id": "S0257",
    "volunteer_id": "V0466",
    "title": "Story Reading",
    "hours": "4.7",
    "date": "2025-02-07"
  },
  {
    "shift_id": "S0258",
    "volunteer_id": "V0156",
    "title": "Cleaning",
    "hours": "1.1",
    "date": "2025-04-19"
  },
  {
    "shift_id": "S0259",
    "volunteer_id": "V0308",
    "title": "Health Check",
    "hours": "1.6",
    "date": "2025-04-24"
  },
  {
    "shift_id": "S0260",
    "volunteer_id": "V0489",
    "title": "Teaching",
    "hours": "3.0",
    "date": "2025-06-06"
  },
  {
    "shift_id": "S0261",
    "volunteer_id": "V0078",
    "title": "Cleaning",
    "hours": "2.8",
    "date": "2025-05-13"
  },
  {
    "shift_id": "S0262",
    "volunteer_id": "V0289",
    "title": "Story Reading",
    "hours": "2.9",
    "date": "2025-03-30"
  },
  {
    "shift_id": "S0263",
    "volunteer_id": "V0338",
    "title": "Food Packing",
    "hours": "4.0",
    "date": "2025-02-23"
  },
  {
    "shift_id": "S0264",
    "volunteer_id": "V0159",
    "title": "Food Packing",
    "hours": "2.6",
    "date": "2025-05-04"
  },
  {
    "shift_id": "S0265",
    "volunteer_id": "V0072",
    "title": "Teaching",
    "hours": "2.6",
    "date": "2025-05-11"
  },
  {
    "shift_id": "S0266",
    "volunteer_id": "V0028",
    "title": "Food Packing",
    "hours": "1.8",
    "date": "2025-05-13"
  },
  {
    "shift_id": "S0267",
    "volunteer_id": "V0277",
    "title": "Teaching",
    "hours": "3.0",
    "date": "2025-02-10"
  },
  {
    "shift_id": "S0268",
    "volunteer_id": "V0181",
    "title": "Cleaning",
    "hours": "4.9",
    "date": "2025-02-19"
  },
  {
    "shift_id": "S0269",
    "volunteer_id": "V0456",
    "title": "Teaching",
    "hours": "2.3",
    "date": "2025-06-13"
  },
  {
    "shift_id": "S0270",
    "volunteer_id": "V0226",
    "title": "Story Reading",
    "hours": "3.0",
    "date": "2025-05-20"
  },
  {
    "shift_id": "S0271",
    "volunteer_id": "V0252",
    "title": "Health Check",
    "hours": "1.1",
    "date": "2025-04-16"
  },
  {
    "shift_id": "S0272",
    "volunteer_id": "V0172",
    "title": "Story Reading",
    "hours": "2.6",
    "date": "2025-05-21"
  },
  {
    "shift_id": "S0273",
    "volunteer_id": "V0230",
    "title": "Health Check",
    "hours": "2.6",
    "date": "2025-01-09"
  },
  {
    "shift_id": "S0274",
    "volunteer_id": "V0180",
    "title": "Health Check",
    "hours": "4.5",
    "date": "2025-05-15"
  },
  {
    "shift_id": "S0275",
    "volunteer_id": "V0429",
    "title": "Health Check",
    "hours": "1.7",
    "date": "2025-02-27"
  },
  {
    "shift_id": "S0276",
    "volunteer_id": "V0237",
    "title": "Cleaning",
    "hours": "2.3",
    "date": "2025-05-24"
  },
  {
    "shift_id": "S0277",
    "volunteer_id": "V0098",
    "title": "Food Packing",
    "hours": "3.4",
    "date": "2025-06-25"
  },
  {
    "shift_id": "S0278",
    "volunteer_id": "V0123",
    "title": "Teaching",
    "hours": "4.3",
    "date": "2025-06-08"
  },
  {
    "shift_id": "S0279",
    "volunteer_id": "V0350",
    "title": "Teaching",
    "hours": "4.1",
    "date": "2025-05-24"
  },
  {
    "shift_id": "S0280",
    "volunteer_id": "V0080",
    "title": "Health Check",
    "hours": "2.2",
    "date": "2025-04-02"
  },
  {
    "shift_id": "S0281",
    "volunteer_id": "V0385",
    "title": "Teaching",
    "hours": "3.1",
    "date": "2025-03-17"
  },
  {
    "shift_id": "S0282",
    "volunteer_id": "V0120",
    "title": "Food Packing",
    "hours": "2.6",
    "date": "2025-01-11"
  },
  {
    "shift_id": "S0283",
    "volunteer_id": "V0010",
    "title": "Health Check",
    "hours": "1.7",
    "date": "2025-05-24"
  },
  {
    "shift_id": "S0284",
    "volunteer_id": "V0174",
    "title": "Food Packing",
    "hours": "1.9",
    "date": "2025-02-07"
  },
  {
    "shift_id": "S0285",
    "volunteer_id": "V0477",
    "title": "Teaching",
    "hours": "1.4",
    "date": "2025-03-26"
  },
  {
    "shift_id": "S0286",
    "volunteer_id": "V0440",
    "title": "Cleaning",
    "hours": "1.3",
    "date": "2025-05-15"
  },
  {
    "shift_id": "S0287",
    "volunteer_id": "V0206",
    "title": "Story Reading",
    "hours": "4.5",
    "date": "2025-02-03"
  },
  {
    "shift_id": "S0288",
    "volunteer_id": "V0306",
    "title": "Food Packing",
    "hours": "1.4",
    "date": "2025-02-13"
  },
  {
    "shift_id": "S0289",
    "volunteer_id": "V0176",
    "title": "Health Check",
    "hours": "2.8",
    "date": "2025-02-07"
  },
  {
    "shift_id": "S0290",
    "volunteer_id": "V0399",
    "title": "Health Check",
    "hours": "5.0",
    "date": "2025-03-12"
  },
  {
    "shift_id": "S0291",
    "volunteer_id": "V0459",
    "title": "Food Packing",
    "hours": "2.1",
    "date": "2025-01-14"
  },
  {
    "shift_id": "S0292",
    "volunteer_id": "V0210",
    "title": "Teaching",
    "hours": "2.7",
    "date": "2025-03-12"
  },
  {
    "shift_id": "S0293",
    "volunteer_id": "V0381",
    "title": "Teaching",
    "hours": "4.5",
    "date": "2025-04-21"
  },
  {
    "shift_id": "S0294",
    "volunteer_id": "V0276",
    "title": "Teaching",
    "hours": "2.2",
    "date": "2025-01-18"
  },
  {
    "shift_id": "S0295",
    "volunteer_id": "V0323",
    "title": "Health Check",
    "hours": "1.7",
    "date": "2025-03-06"
  },
  {
    "shift_id": "S0296",
    "volunteer_id": "V0114",
    "title": "Cleaning",
    "hours": "3.6",
    "date": "2025-04-14"
  },
  {
    "shift_id": "S0297",
    "volunteer_id": "V0440",
    "title": "Health Check",
    "hours": "3.2",
    "date": "2025-04-15"
  },
  {
    "shift_id": "S0298",
    "volunteer_id": "V0292",
    "title": "Health Check",
    "hours": "2.5",
    "date": "2025-03-16"
  },
  {
    "shift_id": "S0299",
    "volunteer_id": "V0274",
    "title": "Health Check",
    "hours": "3.6",
    "date": "2025-05-20"
  },
  {
    "shift_id": "S0300",
    "volunteer_id": "V0231",
    "title": "Teaching",
    "hours": "4.3",
    "date": "2025-05-07"
  }
]